[
  {
    "name": "武汉市",
    "value": 120,
    "scenics": [
      {
        "id": 11,
        "name": "中国地质大学逸夫博物馆",
        "longitude": 114.4005,
        "latitude": 30.5154
      },
      {
        "id": 35,
        "name": "吉庆街",
        "longitude": 114.29,
        "latitude": 30.58
      },
      {
        "id": 73,
        "name": "石门峰纪念公园-辛亥革命纪念园",
        "longitude": 114.3895,
        "latitude": 30.5158
      },
      {
        "id": 194,
        "name": "老斋舍",
        "longitude": 114.3575,
        "latitude": 30.5365
      },
      {
        "id": 242,
        "name": "武汉九真山风景区",
        "longitude": 114.0833,
        "latitude": 30.4167
      },
      {
        "id": 332,
        "name": "武汉杜莎夫人蜡像馆",
        "longitude": 114.402,
        "latitude": 30.514
      },
      {
        "id": 350,
        "name": "东湖落雁岛",
        "longitude": 114.416667,
        "latitude": 30.55
      },
      {
        "id": 368,
        "name": "宝通禅寺",
        "longitude": 114.352,
        "latitude": 30.524
      },
      {
        "id": 497,
        "name": "东湖生态旅游风景区",
        "longitude": 114.4167,
        "latitude": 30.55
      },
      {
        "id": 686,
        "name": "武汉东湖海洋乐园",
        "longitude": 114.3665,
        "latitude": 30.5465
      },
      {
        "id": 705,
        "name": "403国际艺术中心",
        "longitude": 114.407,
        "latitude": 30.514
      },
      {
        "id": 822,
        "name": "金银湖湿地公园",
        "longitude": 114.2085,
        "latitude": 30.6392
      },
      {
        "id": 846,
        "name": "武汉大学",
        "longitude": 114.3574,
        "latitude": 30.5365
      },
      {
        "id": 852,
        "name": "武汉长江大桥建成纪念碑",
        "longitude": 114.3055,
        "latitude": 30.5495
      },
      {
        "id": 885,
        "name": "楚河汉街",
        "longitude": 114.3615,
        "latitude": 30.5465
      },
      {
        "id": 904,
        "name": "晴川桥",
        "longitude": 114.285,
        "latitude": 30.561
      },
      {
        "id": 941,
        "name": "解放公园",
        "longitude": 110.349228,
        "latitude": 20.044412
      },
      {
        "id": 995,
        "name": "武昌起义军政府旧址",
        "longitude": 114.3055,
        "latitude": 30.5469
      },
      {
        "id": 1043,
        "name": "汉口江滩",
        "longitude": 114.305392,
        "latitude": 30.592849
      },
      {
        "id": 1084,
        "name": "武汉大学万林艺术博物馆",
        "longitude": 114.3574,
        "latitude": 30.5361
      },
      {
        "id": 1154,
        "name": "螃蟹甲",
        "longitude": 114.3167,
        "latitude": 30.5333
      },
      {
        "id": 1157,
        "name": "木兰山风景区",
        "longitude": 114.37,
        "latitude": 31.55
      },
      {
        "id": 1184,
        "name": "东湖梅园",
        "longitude": 114.3667,
        "latitude": 30.5333
      },
      {
        "id": 1418,
        "name": "湖北省图书馆",
        "longitude": 114.3575,
        "latitude": 30.5244
      },
      {
        "id": 1459,
        "name": "龟山电视塔",
        "longitude": 114.291,
        "latitude": 30.547
      },
      {
        "id": 1486,
        "name": "汉阳江滩",
        "longitude": 114.2667,
        "latitude": 30.5333
      },
      {
        "id": 1519,
        "name": "武汉博物馆",
        "longitude": 114.266,
        "latitude": 30.583
      },
      {
        "id": 1537,
        "name": "古琴台",
        "longitude": 114.2715,
        "latitude": 30.5473
      },
      {
        "id": 1578,
        "name": "武汉木兰云雾山景区",
        "longitude": 114.3667,
        "latitude": 31.0833
      },
      {
        "id": 1611,
        "name": "华中科技大学",
        "longitude": 114.407,
        "latitude": 30.5205
      },
      {
        "id": 1718,
        "name": "中南民族大学",
        "longitude": 114.3615,
        "latitude": 30.5078
      },
      {
        "id": 1740,
        "name": "武汉九峰森林动物园",
        "longitude": 114.434,
        "latitude": 30.506
      },
      {
        "id": 1789,
        "name": "光谷多莫大教堂",
        "longitude": 114.404,
        "latitude": 30.505
      },
      {
        "id": 1874,
        "name": "中山大道",
        "longitude": 114.298572,
        "latitude": 30.584355
      },
      {
        "id": 1963,
        "name": "龙王庙公园",
        "longitude": 114.2915,
        "latitude": 30.5712
      },
      {
        "id": 2042,
        "name": "中山舰博物馆",
        "longitude": 114.3225,
        "latitude": 30.5036
      },
      {
        "id": 2046,
        "name": "平和打包厂旧址",
        "longitude": 114.2905,
        "latitude": 30.5728
      },
      {
        "id": 2076,
        "name": "黄陂大余湾",
        "longitude": 114.376,
        "latitude": 30.874
      },
      {
        "id": 2204,
        "name": "龟山公园-铁门关",
        "longitude": 114.2905,
        "latitude": 30.5478
      },
      {
        "id": 2246,
        "name": "楚天台",
        "longitude": 114.3833,
        "latitude": 30.5333
      },
      {
        "id": 2336,
        "name": "东湖绿道",
        "longitude": 114.3667,
        "latitude": 30.5333
      },
      {
        "id": 2397,
        "name": "江汉路步行街",
        "longitude": 114.29,
        "latitude": 30.58
      },
      {
        "id": 2430,
        "name": "花博汇",
        "longitude": 114.0833,
        "latitude": 30.5833
      },
      {
        "id": 2461,
        "name": "武汉琴台大剧院",
        "longitude": 114.2667,
        "latitude": 30.55
      },
      {
        "id": 2485,
        "name": "长江武汉关",
        "longitude": 114.305392,
        "latitude": 30.581084
      },
      {
        "id": 2566,
        "name": "归元禅寺",
        "longitude": 114.265,
        "latitude": 30.547
      },
      {
        "id": 2594,
        "name": "中南财经政法大学",
        "longitude": 114.3908,
        "latitude": 30.5145
      },
      {
        "id": 2595,
        "name": "华中师范大学",
        "longitude": 114.3575,
        "latitude": 30.5245
      },
      {
        "id": 2608,
        "name": "碧潭观鱼",
        "longitude": 114.3655,
        "latitude": 30.5261
      },
      {
        "id": 2721,
        "name": "黎黄陂路街头博物馆",
        "longitude": 114.297,
        "latitude": 30.595
      }
    ]
  },
  {
    "name": "恩施土家族苗族自治州",
    "value": 43,
    "scenics": [
      {
        "id": 13,
        "name": "板桥女儿湖",
        "longitude": 109.472,
        "latitude": 30.283
      },
      {
        "id": 88,
        "name": "福宝山",
        "longitude": 108.936,
        "latitude": 30.283
      },
      {
        "id": 158,
        "name": "鹤峰屏山峡谷",
        "longitude": 110.033333,
        "latitude": 29.883333
      },
      {
        "id": 204,
        "name": "鹿院坪",
        "longitude": 109.123456,
        "latitude": 30.654321
      },
      {
        "id": 229,
        "name": "绝壁栈道",
        "longitude": 110.341,
        "latitude": 30.715
      },
      {
        "id": 379,
        "name": "恩施大清江景区",
        "longitude": 109.48,
        "latitude": 30.3
      },
      {
        "id": 403,
        "name": "黄金洞",
        "longitude": 109.5,
        "latitude": 30.2
      },
      {
        "id": 633,
        "name": "恩施大峡谷-七星寨景区",
        "longitude": 109.48,
        "latitude": 30.5
      },
      {
        "id": 755,
        "name": "土司城九讲堂",
        "longitude": 109.48,
        "latitude": 30.28
      },
      {
        "id": 1522,
        "name": "恩施地心谷景区",
        "longitude": 109.5,
        "latitude": 30.3
      },
      {
        "id": 1836,
        "name": "利川清江古河床",
        "longitude": 108.935,
        "latitude": 30.291
      },
      {
        "id": 1930,
        "name": "恩施土家族苗族自治州博物馆",
        "longitude": 109.486,
        "latitude": 30.283
      },
      {
        "id": 2489,
        "name": "大面山",
        "longitude": 110.123456,
        "latitude": 30.654321
      },
      {
        "id": 2722,
        "name": "麻柳溪村",
        "longitude": 109.123456,
        "latitude": 30.654321
      },
      {
        "id": 2758,
        "name": "恩施风雨桥",
        "longitude": 109.486,
        "latitude": 30.283
      },
      {
        "id": 2987,
        "name": "神农溪",
        "longitude": 110.336,
        "latitude": 30.774
      },
      {
        "id": 3078,
        "name": "恩施大峡谷",
        "longitude": 109.48,
        "latitude": 30.33
      },
      {
        "id": 3200,
        "name": "一炷香",
        "longitude": 110.431,
        "latitude": 30.739
      },
      {
        "id": 3273,
        "name": "鱼木寨",
        "longitude": 108.75,
        "latitude": 30.25
      },
      {
        "id": 3330,
        "name": "恩施野三峡综合旅游区",
        "longitude": 109.48,
        "latitude": 30.3
      },
      {
        "id": 3511,
        "name": "枫香坡侗族风情寨",
        "longitude": 109.486,
        "latitude": 30.283
      },
      {
        "id": 3652,
        "name": "董家河风景区",
        "longitude": 109.45,
        "latitude": 30.28
      },
      {
        "id": 3892,
        "name": "腾龙洞",
        "longitude": 109.0833,
        "latitude": 30.2833
      },
      {
        "id": 4374,
        "name": "躲避峡景区",
        "longitude": 109.717,
        "latitude": 30.283
      },
      {
        "id": 4787,
        "name": "狮子关旅游区",
        "longitude": 109.477,
        "latitude": 30.175
      },
      {
        "id": 4875,
        "name": "恩施坪坝营国家森林公园景区",
        "longitude": 109.12,
        "latitude": 29.68
      },
      {
        "id": 5151,
        "name": "大水井古建筑群",
        "longitude": 109.123456,
        "latitude": 30.654321
      },
      {
        "id": 5217,
        "name": "齐岳山",
        "longitude": 108.75,
        "latitude": 30.25
      },
      {
        "id": 5334,
        "name": "苏马荡",
        "longitude": 108.85,
        "latitude": 30.35
      },
      {
        "id": 5485,
        "name": "恩施梭布垭石林",
        "longitude": 109.48,
        "latitude": 30.3
      },
      {
        "id": 5547,
        "name": "容美土司城遗址",
        "longitude": 110.033333,
        "latitude": 30.166667
      },
      {
        "id": 5603,
        "name": "恩施之巅-黄鹤峰林",
        "longitude": 109.48,
        "latitude": 30.3
      },
      {
        "id": 5659,
        "name": "恩施土司城",
        "longitude": 109.48,
        "latitude": 30.3
      },
      {
        "id": 5729,
        "name": "恩施大峡谷-云龙地缝",
        "longitude": 109.4803,
        "latitude": 30.3302
      },
      {
        "id": 5763,
        "name": "四洞峡",
        "longitude": 109.49,
        "latitude": 30.28
      },
      {
        "id": 5934,
        "name": "玉龙洞风景区",
        "longitude": 109.47,
        "latitude": 30.28
      },
      {
        "id": 5982,
        "name": "恩施清江蝴蝶崖风景区",
        "longitude": 109.48,
        "latitude": 30.3
      },
      {
        "id": 6076,
        "name": "四渡河大桥",
        "longitude": 110.345,
        "latitude": 30.567
      },
      {
        "id": 6454,
        "name": "龙船水乡风景区",
        "longitude": 109.48,
        "latitude": 30.29
      },
      {
        "id": 6641,
        "name": "双子塔",
        "longitude": 114.407,
        "latitude": 30.515
      },
      {
        "id": 6880,
        "name": "连珠塔",
        "longitude": 109.48,
        "latitude": 30.29
      },
      {
        "id": 7178,
        "name": "土家女儿城",
        "longitude": 109.48,
        "latitude": 30.27
      }
    ]
  },
  {
    "name": "宜昌市",
    "value": 33,
    "scenics": [
      {
        "id": 740,
        "name": "西陵峡风景区",
        "longitude": 111.3,
        "latitude": 30.7
      },
      {
        "id": 1255,
        "name": "185观景平台",
        "longitude": 114.4167,
        "latitude": 30.5167
      },
      {
        "id": 1391,
        "name": "百里荒景区",
        "longitude": 111.2345,
        "latitude": 30.6789
      },
      {
        "id": 1517,
        "name": "葛洲坝公园",
        "longitude": 111.3,
        "latitude": 30.7
      },
      {
        "id": 2087,
        "name": "昭君村景区",
        "longitude": 110.67,
        "latitude": 31.45
      },
      {
        "id": 2225,
        "name": "三游洞风景区",
        "longitude": 111.3125,
        "latitude": 30.6875
      },
      {
        "id": 2321,
        "name": "三峡九凤谷",
        "longitude": 111.123456,
        "latitude": 30.654321
      },
      {
        "id": 2375,
        "name": "长江三峡大坝旅游区",
        "longitude": 111.0035,
        "latitude": 30.8231
      },
      {
        "id": 2487,
        "name": "三峡大瀑布",
        "longitude": 111.123456,
        "latitude": 30.654321
      },
      {
        "id": 2532,
        "name": "大老岭国家森林公园",
        "longitude": 110.8,
        "latitude": 30.9
      },
      {
        "id": 2777,
        "name": "关陵",
        "longitude": 111.4567,
        "latitude": 30.5678
      },
      {
        "id": 2793,
        "name": "长坂坡公园",
        "longitude": 111.7833,
        "latitude": 30.8167
      },
      {
        "id": 3164,
        "name": "柴埠溪大峡谷",
        "longitude": 110.58,
        "latitude": 30.45
      },
      {
        "id": 3327,
        "name": "宜昌清江方山风景区",
        "longitude": 111.123456,
        "latitude": 30.654321
      },
      {
        "id": 3609,
        "name": "柴埠溪大峡谷-大湾口景区",
        "longitude": 110.583333,
        "latitude": 30.166667
      },
      {
        "id": 3984,
        "name": "巴王寨",
        "longitude": 110.771,
        "latitude": 30.822
      },
      {
        "id": 4040,
        "name": "三峡观坝风景区",
        "longitude": 111.0,
        "latitude": 30.8
      },
      {
        "id": 4052,
        "name": "截流纪念园",
        "longitude": 111.3,
        "latitude": 30.7
      },
      {
        "id": 4100,
        "name": "屈原故里",
        "longitude": 110.977,
        "latitude": 30.825
      },
      {
        "id": 4179,
        "name": "三峡人家",
        "longitude": 111.0833,
        "latitude": 30.8333
      },
      {
        "id": 4629,
        "name": "三峡竹海",
        "longitude": 110.977,
        "latitude": 30.825
      },
      {
        "id": 4740,
        "name": "西陵峡世外桃源",
        "longitude": 111.2345,
        "latitude": 30.6789
      },
      {
        "id": 4773,
        "name": "宜昌车溪民俗风景区",
        "longitude": 111.2345,
        "latitude": 30.6789
      },
      {
        "id": 4786,
        "name": "长江三峡",
        "longitude": 110.0,
        "latitude": 30.0
      },
      {
        "id": 4985,
        "name": "倒影峡",
        "longitude": 110.8,
        "latitude": 30.5
      },
      {
        "id": 5115,
        "name": "西陵峡快乐谷",
        "longitude": 111.3125,
        "latitude": 30.7081
      },
      {
        "id": 5241,
        "name": "坛子岭风景区",
        "longitude": 111.003,
        "latitude": 30.822
      },
      {
        "id": 5288,
        "name": "三峡人家风景区-龙津溪",
        "longitude": 110.977,
        "latitude": 30.832
      },
      {
        "id": 6437,
        "name": "清江画廊",
        "longitude": 110.37,
        "latitude": 30.28
      },
      {
        "id": 6478,
        "name": "葛洲坝船闸",
        "longitude": 111.3,
        "latitude": 30.7333
      },
      {
        "id": 6503,
        "name": "灯影石",
        "longitude": 110.798,
        "latitude": 30.785
      },
      {
        "id": 6709,
        "name": "滨江公园",
        "longitude": 114.3,
        "latitude": 30.5833
      },
      {
        "id": 7024,
        "name": "武落钟离山",
        "longitude": 110.8,
        "latitude": 30.5
      }
    ]
  },
  {
    "name": "省直辖县级行政区划",
    "value": 19,
    "scenics": [
      {
        "id": 586,
        "name": "香溪源风景区",
        "longitude": 110.75,
        "latitude": 31.35
      },
      {
        "id": 1313,
        "name": "红坪画廊",
        "longitude": 110.45,
        "latitude": 31.55
      },
      {
        "id": 2009,
        "name": "天生桥",
        "longitude": 110.517,
        "latitude": 31.018
      },
      {
        "id": 2478,
        "name": "木鱼镇",
        "longitude": 110.671,
        "latitude": 31.744
      },
      {
        "id": 2744,
        "name": "神农架国家级自然保护区",
        "longitude": 110.6719,
        "latitude": 31.7448
      },
      {
        "id": 2843,
        "name": "金猴岭",
        "longitude": 110.28,
        "latitude": 31.47
      },
      {
        "id": 3071,
        "name": "湖北仙桃梦里水乡旅游景区",
        "longitude": 113.45,
        "latitude": 30.37
      },
      {
        "id": 3143,
        "name": "太子垭",
        "longitude": 110.416667,
        "latitude": 31.583333
      },
      {
        "id": 3415,
        "name": "神农架神农顶风景区-神农谷",
        "longitude": 110.336,
        "latitude": 31.583
      },
      {
        "id": 3563,
        "name": "神农架大九湖国家湿地公园",
        "longitude": 110.0,
        "latitude": 31.5
      },
      {
        "id": 4224,
        "name": "神农架国家地质公园-官门山景区",
        "longitude": 110.6765,
        "latitude": 31.7449
      },
      {
        "id": 4668,
        "name": "神农架国际滑雪场",
        "longitude": 110.6765,
        "latitude": 31.7449
      },
      {
        "id": 4919,
        "name": "神农坛风景区",
        "longitude": 110.6719,
        "latitude": 31.7459
      },
      {
        "id": 5065,
        "name": "板壁岩",
        "longitude": 110.416667,
        "latitude": 31.583333
      },
      {
        "id": 5602,
        "name": "燕子垭",
        "longitude": 110.45,
        "latitude": 31.55
      },
      {
        "id": 5931,
        "name": "天燕景区",
        "longitude": 110.416667,
        "latitude": 31.583333
      },
      {
        "id": 6313,
        "name": "神农架老君山",
        "longitude": 110.678,
        "latitude": 31.745
      },
      {
        "id": 6753,
        "name": "陆羽纪念馆",
        "longitude": 113.3667,
        "latitude": 30.5333
      },
      {
        "id": 6901,
        "name": "神农顶风景区",
        "longitude": 110.29,
        "latitude": 31.45
      }
    ]
  },
  {
    "name": "襄阳市",
    "value": 18,
    "scenics": [
      {
        "id": 509,
        "name": "襄阳古城",
        "longitude": 112.1477,
        "latitude": 32.0151
      },
      {
        "id": 673,
        "name": "诸葛亮广场",
        "longitude": 112.1442,
        "latitude": 32.0424
      },
      {
        "id": 1511,
        "name": "襄阳盛世唐城景区",
        "longitude": 112.148,
        "latitude": 32.018
      },
      {
        "id": 1523,
        "name": "古隆中",
        "longitude": 112.148,
        "latitude": 31.999
      },
      {
        "id": 1806,
        "name": "襄王府绿影壁",
        "longitude": 112.146,
        "latitude": 32.018
      },
      {
        "id": 2083,
        "name": "枣阳中国汉城汉宫景区",
        "longitude": 112.764,
        "latitude": 32.128
      },
      {
        "id": 2600,
        "name": "襄阳博物馆",
        "longitude": 112.1442,
        "latitude": 32.0084
      },
      {
        "id": 2893,
        "name": "习家池",
        "longitude": 112.144722,
        "latitude": 32.008611
      },
      {
        "id": 3466,
        "name": "北街",
        "longitude": 112.15,
        "latitude": 32.0167
      },
      {
        "id": 3480,
        "name": "襄阳城墙",
        "longitude": 112.1477,
        "latitude": 32.0151
      },
      {
        "id": 3693,
        "name": "五道峡景区",
        "longitude": 111.345,
        "latitude": 31.678
      },
      {
        "id": 3932,
        "name": "昭明台",
        "longitude": 112.144,
        "latitude": 32.045
      },
      {
        "id": 4961,
        "name": "临汉门",
        "longitude": 112.1442,
        "latitude": 32.0426
      },
      {
        "id": 5028,
        "name": "香水河风景区",
        "longitude": 111.85,
        "latitude": 31.68
      },
      {
        "id": 5188,
        "name": "襄阳古城墙护城河",
        "longitude": 112.1502,
        "latitude": 32.0088
      },
      {
        "id": 5486,
        "name": "襄阳春秋寨景区",
        "longitude": 111.7833,
        "latitude": 31.6833
      },
      {
        "id": 5496,
        "name": "夫人城",
        "longitude": 112.1506,
        "latitude": 32.0156
      },
      {
        "id": 6391,
        "name": "米公祠",
        "longitude": 112.1505,
        "latitude": 32.0654
      }
    ]
  },
  {
    "name": "十堰市",
    "value": 16,
    "scenics": [
      {
        "id": 919,
        "name": "武当山风景区",
        "longitude": 111.004,
        "latitude": 32.4
      },
      {
        "id": 1431,
        "name": "武当山风景区-五龙宫景区",
        "longitude": 111.004,
        "latitude": 32.4
      },
      {
        "id": 1768,
        "name": "紫金城",
        "longitude": 114.298572,
        "latitude": 30.584355
      },
      {
        "id": 2110,
        "name": "武当山风景区-武当之巅",
        "longitude": 111.004,
        "latitude": 32.4
      },
      {
        "id": 2200,
        "name": "丹江口大坝",
        "longitude": 111.513,
        "latitude": 32.541
      },
      {
        "id": 2976,
        "name": "太子坡",
        "longitude": 111.004,
        "latitude": 32.401
      },
      {
        "id": 3426,
        "name": "琼台中观",
        "longitude": 110.973,
        "latitude": 32.546
      },
      {
        "id": 3957,
        "name": "金殿",
        "longitude": 114.298572,
        "latitude": 30.584355
      },
      {
        "id": 3958,
        "name": "龙头香",
        "longitude": 110.0,
        "latitude": 32.0
      },
      {
        "id": 4902,
        "name": "南岩宫",
        "longitude": 110.993889,
        "latitude": 32.401389
      },
      {
        "id": 5277,
        "name": "武当太极湖",
        "longitude": 111.004,
        "latitude": 32.4
      },
      {
        "id": 5705,
        "name": "上津古城",
        "longitude": 110.12,
        "latitude": 32.99
      },
      {
        "id": 6047,
        "name": "五龙河",
        "longitude": 110.25,
        "latitude": 32.85
      },
      {
        "id": 6430,
        "name": "玉虚宫",
        "longitude": 110.9876,
        "latitude": 32.6356
      }
    ]
  },
  {
    "name": "荆州市",
    "value": 9,
    "scenics": [
      {
        "id": 727,
        "name": "荆州博物馆",
        "longitude": 112.1904,
        "latitude": 30.3347
      },
      {
        "id": 1244,
        "name": "荆州关羽祠",
        "longitude": 112.1904,
        "latitude": 30.3529
      },
      {
        "id": 2847,
        "name": "荆州古城墙",
        "longitude": 112.1904,
        "latitude": 30.3528
      },
      {
        "id": 2982,
        "name": "张居正故居",
        "longitude": 112.15,
        "latitude": 30.35
      },
      {
        "id": 4242,
        "name": "三国公园",
        "longitude": 112.221,
        "latitude": 30.325
      },
      {
        "id": 4336,
        "name": "荆州古城历史文化旅游区",
        "longitude": 112.1904,
        "latitude": 30.3528
      },
      {
        "id": 4783,
        "name": "熊家冢遗址博物馆",
        "longitude": 112.2019,
        "latitude": 30.3376
      },
      {
        "id": 5959,
        "name": "洪湖生态旅游风景区",
        "longitude": 113.47,
        "latitude": 29.82
      },
      {
        "id": 7184,
        "name": "洈水景区",
        "longitude": 111.53,
        "latitude": 30.18
      }
    ]
  },
  {
    "name": "咸宁市",
    "value": 9,
    "scenics": [
      {
        "id": 1254,
        "name": "羊楼洞",
        "longitude": 113.6833,
        "latitude": 29.7167
      },
      {
        "id": 1427,
        "name": "三国赤壁古战场",
        "longitude": 113.9,
        "latitude": 29.7167
      },
      {
        "id": 1450,
        "name": "湖北通山隐水洞地质公园",
        "longitude": 114.541,
        "latitude": 29.601
      },
      {
        "id": 2189,
        "name": "龙佑温泉",
        "longitude": 113.933,
        "latitude": 29.966
      },
      {
        "id": 2708,
        "name": "九宫山风景名胜区",
        "longitude": 114.56,
        "latitude": 29.58
      },
      {
        "id": 2929,
        "name": "潜山国家森林公园",
        "longitude": 114.35,
        "latitude": 29.85
      },
      {
        "id": 3026,
        "name": "咸宁市太乙洞风景区",
        "longitude": 114.3225,
        "latitude": 29.8417
      },
      {
        "id": 5871,
        "name": "咸宁万豪温泉谷度假区",
        "longitude": 114.3225,
        "latitude": 29.8417
      },
      {
        "id": 6228,
        "name": "碧桂园温泉",
        "longitude": 114.3221,
        "latitude": 30.0673
      }
    ]
  },
  {
    "name": "黄冈市",
    "value": 6,
    "scenics": [
      {
        "id": 3014,
        "name": "红安天台山风景区",
        "longitude": 114.62,
        "latitude": 31.28
      },
      {
        "id": 3954,
        "name": "黄梅四祖寺",
        "longitude": 115.943,
        "latitude": 30.073
      },
      {
        "id": 4893,
        "name": "遗爱湖公园",
        "longitude": 114.892,
        "latitude": 30.443
      },
      {
        "id": 5537,
        "name": "麻城龟峰山风景区",
        "longitude": 115.0167,
        "latitude": 31.1667
      },
      {
        "id": 6064,
        "name": "罗田薄刀峰风景区",
        "longitude": 115.68,
        "latitude": 30.78
      },
      {
        "id": 6067,
        "name": "黄梅五祖寺",
        "longitude": 115.9333,
        "latitude": 30.0833
      }
    ]
  },
  {
    "name": "荆门市",
    "value": 5,
    "scenics": [
      {
        "id": 182,
        "name": "黄仙洞景区",
        "longitude": 112.583333,
        "latitude": 31.166667
      },
      {
        "id": 979,
        "name": "绿林美人谷",
        "longitude": 113.123456,
        "latitude": 31.234567
      },
      {
        "id": 2182,
        "name": "明显陵景区",
        "longitude": 112.633333,
        "latitude": 31.016667
      },
      {
        "id": 4191,
        "name": "钟祥博物馆",
        "longitude": 112.588,
        "latitude": 31.167
      },
      {
        "id": 5311,
        "name": "漳河风景区",
        "longitude": 112.196,
        "latitude": 30.983
      }
    ]
  },
  {
    "name": "孝感市",
    "value": 5,
    "scenics": [
      {
        "id": 353,
        "name": "应城汤池温泉",
        "longitude": 113.572,
        "latitude": 30.94
      },
      {
        "id": 736,
        "name": "钱冲古银杏国家森林公园",
        "longitude": 113.45,
        "latitude": 31.25
      },
      {
        "id": 2424,
        "name": "金卉庄园",
        "longitude": 113.936,
        "latitude": 30.919
      },
      {
        "id": 4218,
        "name": "双峰山国家森林公园",
        "longitude": 113.85,
        "latitude": 31.25
      },
      {
        "id": 4236,
        "name": "白兆山李白文化旅游区",
        "longitude": 113.68,
        "latitude": 31.25
      }
    ]
  },
  {
    "name": "鄂州市",
    "value": 3,
    "scenics": [
      {
        "id": 117,
        "name": "梁子湖生态旅游区",
        "longitude": 114.5333,
        "latitude": 30.2167
      },
      {
        "id": 3616,
        "name": "鄂州西山风景区",
        "longitude": 114.8833,
        "latitude": 30.3833
      },
      {
        "id": 4710,
        "name": "鄂州莲花山",
        "longitude": 114.89,
        "latitude": 30.39
      }
    ]
  },
  {
    "name": "黄石市",
    "value": 3,
    "scenics": [
      {
        "id": 311,
        "name": "东方山风景区",
        "longitude": 114.9833,
        "latitude": 30.2167
      },
      {
        "id": 1470,
        "name": "黄石国家矿山公园",
        "longitude": 115.0833,
        "latitude": 30.2167
      },
      {
        "id": 5891,
        "name": "磁湖风景区",
        "longitude": 115.05,
        "latitude": 30.2
      }
    ]
  },
  {
    "name": "随州市",
    "value": 3,
    "scenics": [
      {
        "id": 1943,
        "name": "随州炎帝故里风景名胜区",
        "longitude": 113.3667,
        "latitude": 31.7167
      },
      {
        "id": 5317,
        "name": "大洪山风景名胜区",
        "longitude": 112.9,
        "latitude": 31.6
      },
      {
        "id": 6339,
        "name": "中国千年银杏谷景区",
        "longitude": 113.123456,
        "latitude": 31.654321
      }
    ]
  }
]