[
  {
    "name": "西安市",
    "value": 57,
    "scenics": [
      {
        "id": 136,
        "name": "大唐西市博物馆",
        "longitude": 108.933,
        "latitude": 34.266
      },
      {
        "id": 165,
        "name": "太平国家森林公园",
        "longitude": 108.55,
        "latitude": 33.95
      },
      {
        "id": 230,
        "name": "西安事变旧址五间厅",
        "longitude": 109.216667,
        "latitude": 34.333333
      },
      {
        "id": 340,
        "name": "化觉巷清真大寺",
        "longitude": 108.9417,
        "latitude": 34.2644
      },
      {
        "id": 421,
        "name": "秦陵铜车马",
        "longitude": 109.213,
        "latitude": 34.383
      },
      {
        "id": 425,
        "name": "秦岭终南山世界地质公园",
        "longitude": 108.9,
        "latitude": 33.9
      },
      {
        "id": 549,
        "name": "大明宫国家遗址公园",
        "longitude": 108.963099,
        "latitude": 34.286232
      },
      {
        "id": 599,
        "name": "高家大院",
        "longitude": 108.945,
        "latitude": 34.265
      },
      {
        "id": 741,
        "name": "西安碑林博物馆",
        "longitude": 108.9505,
        "latitude": 34.2589
      },
      {
        "id": 841,
        "name": "大唐芙蓉园",
        "longitude": 108.9715,
        "latitude": 34.2156
      },
      {
        "id": 888,
        "name": "西安广仁寺",
        "longitude": 108.9333,
        "latitude": 34.2667
      },
      {
        "id": 940,
        "name": "湘子庙",
        "longitude": 108.943,
        "latitude": 34.264
      },
      {
        "id": 1087,
        "name": "西安城墙-长乐门",
        "longitude": 108.9631,
        "latitude": 34.2694
      },
      {
        "id": 1120,
        "name": "大雁塔",
        "longitude": 108.959,
        "latitude": 34.219
      },
      {
        "id": 1200,
        "name": "华清宫-兵谏亭",
        "longitude": 109.213,
        "latitude": 34.363
      },
      {
        "id": 1287,
        "name": "大雁塔南广场",
        "longitude": 108.960747,
        "latitude": 34.219381
      },
      {
        "id": 1306,
        "name": "秦始皇帝陵博物院(兵马俑)",
        "longitude": 109.2733,
        "latitude": 34.3843
      },
      {
        "id": 1374,
        "name": "西安钟楼",
        "longitude": 108.9419,
        "latitude": 34.2611
      },
      {
        "id": 1825,
        "name": "陕西历史博物馆",
        "longitude": 108.953098,
        "latitude": 34.229712
      },
      {
        "id": 2071,
        "name": "乐游原-青龙寺",
        "longitude": 108.9631,
        "latitude": 34.2325
      },
      {
        "id": 2175,
        "name": "西安秦岭野生动物园",
        "longitude": 108.883,
        "latitude": 34.033
      },
      {
        "id": 2315,
        "name": "西安鼓楼",
        "longitude": 108.945,
        "latitude": 34.261
      },
      {
        "id": 2350,
        "name": "回民街",
        "longitude": 108.940174,
        "latitude": 34.261127
      },
      {
        "id": 2407,
        "name": "华清宫",
        "longitude": 109.213,
        "latitude": 34.363
      },
      {
        "id": 2629,
        "name": "西安半坡博物馆",
        "longitude": 109.048,
        "latitude": 34.267
      },
      {
        "id": 2858,
        "name": "关中民俗艺术博物院",
        "longitude": 108.878,
        "latitude": 34.158
      },
      {
        "id": 2975,
        "name": "书院门步行街",
        "longitude": 108.945,
        "latitude": 34.261
      },
      {
        "id": 2994,
        "name": "兵马俑《秦俑情》",
        "longitude": 109.2733,
        "latitude": 34.3849
      },
      {
        "id": 3006,
        "name": "大明宫遗址博物馆",
        "longitude": 108.9629,
        "latitude": 34.2897
      },
      {
        "id": 3147,
        "name": "西安世博园",
        "longitude": 109.045,
        "latitude": 34.303
      },
      {
        "id": 3188,
        "name": "白鹿原影视城",
        "longitude": 109.123456,
        "latitude": 34.123456
      },
      {
        "id": 3275,
        "name": "大唐不夜城",
        "longitude": 108.959,
        "latitude": 34.219
      },
      {
        "id": 3575,
        "name": "曲江寒窑遗址公园",
        "longitude": 108.968,
        "latitude": 34.215
      },
      {
        "id": 3622,
        "name": "西安城墙-永宁门",
        "longitude": 108.946,
        "latitude": 34.258
      },
      {
        "id": 3638,
        "name": "德福巷",
        "longitude": 108.943,
        "latitude": 34.258
      },
      {
        "id": 3874,
        "name": "西安城墙",
        "longitude": 108.946465,
        "latitude": 34.260043
      },
      {
        "id": 3967,
        "name": "西安事变纪念馆",
        "longitude": 108.953,
        "latitude": 34.269
      },
      {
        "id": 4057,
        "name": "《长恨歌》演出",
        "longitude": 109.213,
        "latitude": 34.361
      },
      {
        "id": 4425,
        "name": "钟鼓楼广场",
        "longitude": 108.940174,
        "latitude": 34.341568
      },
      {
        "id": 4716,
        "name": "大雁塔文化休闲景区",
        "longitude": 108.960747,
        "latitude": 34.219381
      },
      {
        "id": 4719,
        "name": "骊山国家森林公园",
        "longitude": 109.21,
        "latitude": 34.37
      },
      {
        "id": 4832,
        "name": "大雁塔音乐喷泉",
        "longitude": 108.9595,
        "latitude": 34.2195
      },
      {
        "id": 5086,
        "name": "大雁塔北广场",
        "longitude": 108.9592,
        "latitude": 34.2195
      },
      {
        "id": 5137,
        "name": "秦始皇陵",
        "longitude": 109.273,
        "latitude": 34.384
      },
      {
        "id": 5267,
        "name": "翠华山景区",
        "longitude": 108.966667,
        "latitude": 34.016667
      },
      {
        "id": 5314,
        "name": "大兴善寺",
        "longitude": 108.9545,
        "latitude": 34.2309
      },
      {
        "id": 5329,
        "name": "曲江池遗址公园",
        "longitude": 108.9631,
        "latitude": 34.2156
      },
      {
        "id": 5440,
        "name": "兴庆宫公园",
        "longitude": 108.9631,
        "latitude": 34.2694
      },
      {
        "id": 5525,
        "name": "荐福寺小雁塔",
        "longitude": 108.9405,
        "latitude": 34.2468
      }
    ]
  },
  {
    "name": "渭南市",
    "value": 18,
    "scenics": [
      {
        "id": 640,
        "name": "华山风景名胜区-百尺峡",
        "longitude": 110.091,
        "latitude": 34.488
      },
      {
        "id": 1567,
        "name": "华山西岳庙",
        "longitude": 110.083333,
        "latitude": 34.483333
      },
      {
        "id": 2162,
        "name": "华山长空栈道",
        "longitude": 110.091,
        "latitude": 34.482
      },
      {
        "id": 4808,
        "name": "华山",
        "longitude": 110.091,
        "latitude": 34.488
      },
      {
        "id": 5468,
        "name": "金锁关",
        "longitude": 109.123456,
        "latitude": 35.654321
      },
      {
        "id": 5881,
        "name": "鹞子翻身",
        "longitude": 109.5,
        "latitude": 34.5
      },
      {
        "id": 6008,
        "name": "华山风景名胜区-南峰",
        "longitude": 110.091,
        "latitude": 34.488
      },
      {
        "id": 6121,
        "name": "擦耳崖",
        "longitude": 109.55,
        "latitude": 34.48
      },
      {
        "id": 6707,
        "name": "苍龙岭",
        "longitude": 109.966667,
        "latitude": 34.483333
      },
      {
        "id": 6877,
        "name": "玉泉院",
        "longitude": 109.0833,
        "latitude": 34.4833
      }
    ]
  },
  {
    "name": "延安市",
    "value": 8,
    "scenics": [
      {
        "id": 141,
        "name": "枣园革命旧址",
        "longitude": 109.481,
        "latitude": 36.608
      },
      {
        "id": 1102,
        "name": "甘泉大峡谷",
        "longitude": 109.35,
        "latitude": 36.28
      },
      {
        "id": 1972,
        "name": "黄河壶口瀑布(陕西侧)",
        "longitude": 110.485,
        "latitude": 36.146
      },
      {
        "id": 3002,
        "name": "黄帝陵",
        "longitude": 109.262,
        "latitude": 35.578
      },
      {
        "id": 4122,
        "name": "延川黄河乾坤湾景区",
        "longitude": 110.191,
        "latitude": 36.878
      },
      {
        "id": 5075,
        "name": "延安杨家岭革命旧址",
        "longitude": 109.487,
        "latitude": 36.601
      },
      {
        "id": 6521,
        "name": "延安革命纪念馆",
        "longitude": 109.4907,
        "latitude": 36.5851
      },
      {
        "id": 6994,
        "name": "宝塔山景区-延安宝塔山",
        "longitude": 109.4907,
        "latitude": 36.5979
      }
    ]
  },
  {
    "name": "宝鸡市",
    "value": 5,
    "scenics": [
      {
        "id": 719,
        "name": "大爷海",
        "longitude": 107.8167,
        "latitude": 33.9333
      },
      {
        "id": 2499,
        "name": "太白山国家森林公园",
        "longitude": 107.77,
        "latitude": 34.0
      },
      {
        "id": 4724,
        "name": "宝鸡青铜器博物院",
        "longitude": 107.1445,
        "latitude": 34.3609
      },
      {
        "id": 4951,
        "name": "法门寺",
        "longitude": 107.904,
        "latitude": 34.437
      },
      {
        "id": 5753,
        "name": "拔仙台",
        "longitude": 107.82,
        "latitude": 33.95
      }
    ]
  },
  {
    "name": "榆林市",
    "value": 4,
    "scenics": [
      {
        "id": 1950,
        "name": "统万城国家考古遗址公园",
        "longitude": 108.866667,
        "latitude": 37.966667
      },
      {
        "id": 2895,
        "name": "镇北台",
        "longitude": 109.735,
        "latitude": 38.316
      },
      {
        "id": 3790,
        "name": "波浪谷景区",
        "longitude": 108.805,
        "latitude": 37.601
      },
      {
        "id": 3841,
        "name": "红石峡生态公园",
        "longitude": 109.73,
        "latitude": 38.29
      }
    ]
  },
  {
    "name": "汉中市",
    "value": 4,
    "scenics": [
      {
        "id": 2710,
        "name": "汉中黎坪景区",
        "longitude": 106.85,
        "latitude": 33.15
      },
      {
        "id": 2798,
        "name": "陕西·汉中石门栈道风景区",
        "longitude": 107.0333,
        "latitude": 33.0667
      },
      {
        "id": 2830,
        "name": "青木川古镇",
        "longitude": 106.0833,
        "latitude": 32.9667
      },
      {
        "id": 4103,
        "name": "勉县武侯祠",
        "longitude": 106.674,
        "latitude": 33.155
      }
    ]
  },
  {
    "name": "咸阳市",
    "value": 3,
    "scenics": [
      {
        "id": 2114,
        "name": "袁家村",
        "longitude": 108.318,
        "latitude": 34.456
      },
      {
        "id": 2180,
        "name": "汉武帝茂陵",
        "longitude": 108.583333,
        "latitude": 34.333333
      },
      {
        "id": 2396,
        "name": "乾陵",
        "longitude": 108.22,
        "latitude": 34.56
      }
    ]
  },
  {
    "name": "商洛市",
    "value": 1,
    "scenics": [
      {
        "id": 6189,
        "name": "金丝峡景区",
        "longitude": 110.5,
        "latitude": 33.5
      }
    ]
  }
]